{
    "BusStopList":[
        {
            "name":"微软上海园区",
            "latitude":"",
            "longitude":""
        },
        {
            "name":"虹桥路恭城路",
            "latitude":"31.193454",
            "longitude":"121.435606"
        },
        {
            "name":"虹桥路宜山路",
            "latitude":"31.192180",
            "longitude":"121.4321924"
        },
        {
            "name":"静安寺愚园路",
            "latitude":"31.224495",
            "longitude":"121.445404"
        },
        {
            "name":"莲花路地铁站南广场",
            "latitude":"31.128618",
            "longitude":"121.402423"
        },
        {
            "name":"莲花南路罗锦路",
            "latitude":"31.123139",
            "longitude":"121.406436"
        },
        {
            "name":"上海春城",
            "latitude":"31.106163",
            "longitude":"121.410061"
        },
        {
            "name":"微软上海园区",
            "latitude":"31.193454",
            "longitude":"121.435606"
        },
        {
            "name":"微软上海园区",
            "latitude":"31.193454",
            "longitude":"121.435606"
        }

    ]
}